City_ID,City,Lat,Lng,Max Temp,Humidity,Cloudiness,Wind Speed,Country,Date
0,happy valley-goose bay,53.3168,-60.3315,-6.83,73,20,2.57,CA,1702497214
1,bethel,41.3712,-73.414,7.33,47,0,6.69,US,1702496989
2,ancud,-41.8697,-73.8203,13.23,64,76,4.84,CL,1702497214
3,yellowknife,62.456,-114.3525,0.29,86,75,2.06,CA,1702497214
4,port-aux-francais,-49.35,70.2167,7.8,96,100,19.6,TF,1702497214
5,north bend,43.4065,-124.2243,11.2,87,0,2.57,US,1702497214
6,blackmans bay,-43.0167,147.3167,15.07,93,70,1.66,AU,1702497215
7,monifieth,56.4832,-2.8272,4.18,100,75,2.06,GB,1702497215
8,roma,43.2128,-75.4557,2.05,90,100,8.75,US,1702497065
9,castillos,-34.1667,-53.8333,24.68,78,100,3.16,UY,1702497215
10,berezovyy,51.6667,135.7,-25.84,69,8,2.95,RU,1702497215
11,calama,-22.4667,-68.9333,26.27,6,0,11.32,CL,1702497215
12,edinburgh of the seven seas,-37.0676,-12.3116,15.08,86,100,5.3,SH,1702497215
13,el bauga,18.262,33.9081,17.39,26,43,4.8,SD,1702497215
14,talnakh,69.4865,88.3972,-23.95,96,100,4.02,RU,1702497216
15,ulladulla,-35.35,150.4667,23.76,63,21,3.05,AU,1702497216
16,waitangi,-43.9535,-176.5597,11.57,81,90,5.81,NZ,1702497216
17,longyearbyen,78.2186,15.6401,0.91,75,75,4.63,SJ,1702497216
18,hawaiian paradise park,19.5933,-154.9731,24.93,89,100,2.06,US,1702497216
19,forster,-32.1667,152.5167,18.54,97,66,2.38,AU,1702497216
20,ikirun,7.9167,4.6667,23.89,32,4,2.0,NG,1702497216
21,wuxi,31.5689,120.2886,12.75,90,97,1.95,CN,1702497216
22,olonkinbyen,70.9221,-8.7187,1.46,93,100,8.83,SJ,1702497216
23,sao tome,0.3365,6.7273,26.96,80,33,2.56,ST,1702497217
24,luderitz,-26.6481,15.1594,16.51,71,0,9.46,NA,1702497217
25,ponta delgada,37.7333,-25.6667,15.4,72,40,4.12,PT,1702497217
26,waingapu,-9.6567,120.2641,25.8,80,100,2.81,ID,1702497217
27,wotho,10.1657,166.0102,27.53,81,46,10.23,MH,1702497217
28,grytviken,-54.2811,-36.5092,3.13,96,100,3.12,GS,1702497217
29,queenstown,-31.8976,26.8753,12.91,92,10,1.63,ZA,1702497217
30,adamstown,-25.066,-130.1015,23.37,83,99,4.91,PN,1702497217
31,west island,-12.1568,96.8225,25.99,78,100,3.6,CC,1702497218
32,udachny,66.4167,112.4,-27.53,82,100,4.67,RU,1702497218
33,east london,-33.0153,27.9116,19.95,85,94,8.56,ZA,1702497218
34,ilulissat,69.2167,-51.1,-5.99,73,40,6.17,GL,1702497218
35,maumere,-8.6199,122.2111,26.76,78,100,2.72,ID,1702497218
36,punta arenas,-53.15,-70.9167,12.06,43,40,10.8,CL,1702497218
37,akureyri,65.6835,-18.0878,5.96,65,75,6.17,IS,1702497218
38,puerto natales,-51.7236,-72.4875,11.25,43,75,10.29,CL,1702497218
39,kristiansund,63.1115,7.732,-1.64,74,20,2.57,NO,1702497219
40,mirny,62.5353,113.9611,-26.61,95,100,5.38,RU,1702496960
41,port mathurin,-19.6833,63.4167,26.16,76,4,5.09,MU,1702497219
42,albany,42.6001,-73.9662,3.53,56,53,1.79,US,1702497219
43,namibe,-15.1961,12.1522,22.74,73,100,3.28,AO,1702497219
44,hermanus,-34.4187,19.2345,16.49,74,100,4.42,ZA,1702497219
45,lazaro cardenas,17.9583,-102.2,30.64,44,100,2.1,MX,1702497219
46,nguigmi,14.2495,13.1092,19.74,29,2,5.97,NE,1702497219
47,kapit,2.0167,112.9333,23.23,100,100,0.3,MY,1702497219
48,mount isa,-20.7333,139.5,30.87,51,87,4.12,AU,1702497220
49,iskateley,67.6803,53.1512,-13.9,95,100,4.39,RU,1702497220
50,muang xay,20.7,101.9833,17.52,86,6,0.56,LA,1702497220
51,heroica caborca,30.7167,-112.15,21.39,25,0,2.81,MX,1702497220
52,saint-pierre,-21.3393,55.4781,25.82,83,75,1.03,RE,1702497220
53,papatowai,-46.5619,169.4708,10.61,68,100,8.09,NZ,1702497220
54,zhangye,38.9342,100.4517,-7.98,73,100,5.37,CN,1702497220
55,cestos city,5.46,-9.5828,27.73,80,1,3.49,LR,1702497220
56,avarua,-21.2078,-159.775,25.03,100,75,3.09,CK,1702497221
57,ust-nera,64.5667,143.2,-27.31,99,100,1.45,RU,1702497221
58,prado,-17.3411,-39.2208,26.59,67,100,4.3,BR,1702497221
59,thompson,55.7435,-97.8558,-5.91,73,100,2.57,CA,1702497221
60,walvis bay,-22.9575,14.5053,16.72,82,0,2.06,NA,1702497221
61,iqaluit,63.7506,-68.5145,-14.15,72,100,1.54,CA,1702497221
62,whitehorse,60.7161,-135.0538,-3.57,86,75,6.69,CA,1702497221
63,chonchi,-42.6128,-73.8092,14.56,52,99,0.56,CL,1702497221
64,holualoa,19.6228,-155.9522,24.88,73,40,3.09,US,1702497221
65,puerto ayora,-0.7393,-90.3518,30.98,80,78,5.05,EC,1702497221
66,mugia,43.1041,-9.2179,12.17,70,15,6.67,ES,1702497222
67,nova vicosa,-17.8919,-39.3719,27.06,66,81,5.08,BR,1702496992
68,hithadhoo,-0.6,73.0833,28.28,74,87,2.07,MV,1702497222
69,cabo san lucas,22.8909,-109.9124,28.67,44,40,2.06,MX,1702497173
70,hamilton,39.1834,-84.5333,8.46,41,0,2.57,US,1702497072
71,flying fish cove,-10.4217,105.6791,24.82,83,75,2.57,CX,1702497222
72,antsiranana,-12.2787,49.2917,26.03,83,100,4.96,MG,1702497222
73,smolyaninovo,43.2956,132.4675,-10.37,30,83,2.34,RU,1702497222
74,carolina beach,34.0352,-77.8936,16.14,39,65,1.34,US,1702497196
75,tiksi,71.6872,128.8694,-17.52,98,100,3.8,RU,1702497222
76,kargopol',61.5071,38.9456,-11.97,94,100,3.62,RU,1702497222
77,leava,-14.3,-178.1667,27.1,67,100,3.34,WF,1702497222
78,la gi,10.6667,107.7833,24.19,84,100,3.99,VN,1702497222
79,ribeira grande,38.5167,-28.7,15.22,67,20,4.12,PT,1702497223
80,fort mcmurray,56.7268,-111.381,2.77,51,0,1.54,CA,1702497223
81,baihar,22.1,80.55,12.76,64,15,1.1,IN,1702497223
82,timimoun,29.2639,0.231,16.21,27,0,2.06,DZ,1702497223
83,south hedland,-20.4089,118.5983,22.96,100,0,3.09,AU,1702497223
84,moree,-29.4667,149.85,24.97,45,99,5.82,AU,1702497223
85,bosaso,11.2842,49.1816,24.63,74,29,2.21,SO,1702497223
86,ilam,26.9167,87.9167,9.0,78,0,2.39,NP,1702497223
87,lobujya,27.95,86.8167,-13.73,23,0,2.41,NP,1702497223
88,taltal,-25.4,-70.4833,19.42,70,72,2.03,CL,1702497224
89,lihue,21.9789,-159.3672,24.58,88,100,11.83,US,1702497224
90,al hazm,16.1641,44.7769,19.82,44,20,1.39,YE,1702497224
91,luorong,24.4058,109.6086,19.43,84,100,0.52,CN,1702497224
92,satellite beach,28.1761,-80.5901,24.05,73,0,8.23,US,1702497224
93,horqueta,-23.3428,-57.0597,29.61,62,86,2.08,PY,1702497224
94,vilyuysk,63.7553,121.6247,-22.78,96,100,4.47,RU,1702497224
95,karratha,-20.7377,116.8463,26.28,61,0,4.73,AU,1702497224
96,port lincoln,-34.7333,135.8667,16.8,85,97,6.06,AU,1702497224
97,badarwas,24.9667,77.5667,14.45,47,67,1.86,IN,1702497224
98,bilibino,68.0546,166.4372,-24.8,98,100,2.08,RU,1702497224
99,ritchie,-29.038,24.6028,26.56,12,0,5.68,ZA,1702497224
100,minas de marcona,-15.2119,-75.1103,21.15,60,25,5.31,PE,1702497225
101,gizo,-8.103,156.8419,27.45,78,19,2.65,SB,1702497225
102,remire-montjoly,4.9167,-52.2667,31.02,70,20,5.14,GF,1702497225
103,huadian,42.9633,126.7478,-10.27,76,100,2.17,CN,1702497225
104,kharp,66.8014,65.8081,-15.4,92,100,2.52,RU,1702497225
105,jianshui,23.6363,102.8264,13.73,97,45,1.77,CN,1702497225
106,bangassou,4.7413,22.8184,20.51,52,76,0.25,CF,1702497225
107,ushuaia,-54.8,-68.3,9.79,57,75,10.29,AR,1702497225
108,margaret river,-33.95,115.0667,12.1,81,49,4.2,AU,1702497225
109,tsiombe,-25.3,45.4833,25.18,85,99,2.95,MG,1702497225
110,duluth,46.7833,-92.1066,2.32,54,0,3.6,US,1702497112
111,campina verde,-19.5356,-49.4864,37.25,23,34,1.21,BR,1702497226
112,yigo village,13.5361,144.8886,27.16,83,75,7.2,GU,1702497226
113,invercargill,-46.4,168.35,11.87,63,88,6.14,NZ,1702497226
114,katsuura,35.1333,140.3,12.83,62,95,1.91,JP,1702497226
115,tazacorte,28.629,-17.9293,22.3,32,0,4.12,ES,1702497226
116,atafu village,-8.5421,-172.5159,26.53,89,100,7.76,TK,1702497226
117,susuman,62.7833,148.1667,-26.12,100,100,1.34,RU,1702497226
118,luanda,-8.8368,13.2343,28.0,82,20,3.6,AO,1702497226
119,robore,-18.3333,-59.75,37.05,47,40,7.72,BO,1702497226
120,pariaman,-0.619,100.12,25.03,89,91,1.32,ID,1702497226
121,sitka,57.0531,-135.33,3.94,75,75,5.66,US,1702497227
122,sierra grande,-41.606,-65.3557,29.98,10,2,6.77,AR,1702497227
123,mancio lima,-7.6142,-72.8958,28.04,83,75,1.03,BR,1702497227
124,alice springs,-23.7,133.8833,20.75,46,41,1.03,AU,1702497115
125,ndelele,4.0333,14.9333,21.39,47,18,0.93,CM,1702497227
126,hami,42.8,93.45,-9.93,51,100,4.46,CN,1702497016
127,yuzhno-kurilsk,44.0306,145.8556,-2.57,69,100,13.14,RU,1702497227
128,vila franca do campo,37.7167,-25.4333,15.23,70,100,4.71,PT,1702497227
129,aktyubinskiy,54.8137,52.8056,-15.87,74,100,5.15,RU,1702497228
130,qaqortoq,60.7167,-46.0333,-15.18,64,19,4.88,GL,1702497228
131,vanino,49.0869,140.2543,-22.26,71,8,4.63,RU,1702497228
132,jijel,36.8205,5.7667,21.97,68,40,3.09,DZ,1702497228
133,farafangana,-22.8167,47.8333,24.94,88,96,3.25,MG,1702497228
134,santa elena de uairen,4.6167,-61.1333,25.87,64,100,1.85,VE,1702497228
135,sunne,59.8376,13.143,-4.82,96,29,1.65,SE,1702497228
136,mirante do paranapanema,-22.2919,-51.9064,35.67,28,3,2.96,BR,1702497228
137,mount gambier,-37.8333,140.7667,14.47,89,68,4.55,AU,1702497229
138,aasiaat,68.7098,-52.8699,-8.2,75,100,7.65,GL,1702497229
139,makoua,0.0069,15.6333,24.33,64,95,0.74,CG,1702497229
140,maqat,47.65,53.3167,-7.43,32,100,10.73,KZ,1702497229
141,khandyga,62.6667,135.6,-33.36,99,100,0.66,RU,1702497229
142,auki,-8.7676,160.7034,25.51,89,69,1.37,SB,1702497229
143,kokopo,-4.352,152.2633,25.28,88,39,2.68,PG,1702497229
144,crane,31.3974,-102.3501,12.79,94,100,7.82,US,1702497229
145,port elizabeth,-33.918,25.5701,18.51,90,20,5.66,ZA,1702497230
146,polyarnyy,69.1989,33.4478,-16.61,100,91,4.48,RU,1702497230
147,bamboo flat,11.7,92.7167,28.05,78,20,1.03,IN,1702497230
148,pericos,25.05,-107.7,27.37,31,100,1.28,MX,1702497230
149,vadso,70.0744,29.7487,-8.91,79,75,5.14,NO,1702497230
150,nea anchialos,39.2833,22.8167,8.72,87,20,2.57,GR,1702497230
151,sittwe,20.15,92.9,20.21,89,21,4.17,MM,1702497230
152,kapuskasing,49.4169,-82.4331,-10.95,73,75,4.63,CA,1702497230
153,saskatoon,52.1168,-106.6345,2.99,51,20,6.17,CA,1702497231
154,andreyevo,55.9465,41.1505,-12.28,93,100,4.44,RU,1702497231
155,okhotsk,59.3833,143.3,-20.33,88,97,10.93,RU,1702497231
156,muli,2.9167,73.5667,27.65,78,85,3.29,MV,1702497231
157,ciudad bolivar,8.1222,-63.5497,31.02,56,94,4.67,VE,1702497231
158,mersing,2.4312,103.8405,24.95,94,20,1.03,MY,1702497231
159,college,64.8569,-147.8028,-14.03,84,100,0.0,US,1702497231
160,romilly-sur-seine,48.5108,3.7263,9.55,91,91,4.05,FR,1702497231
161,utrik,11.2278,169.8474,27.11,84,20,10.95,MH,1702497231
162,labytnangi,66.6572,66.4183,-15.52,93,100,2.98,RU,1702497232
163,stanley,54.868,-1.6985,2.06,94,88,0.73,GB,1702497232
164,willowmore,-33.2926,23.4895,16.44,70,2,3.35,ZA,1702497232
165,saint-joseph,-21.3667,55.6167,25.21,83,90,1.81,RE,1702497232
166,nuuk,64.1835,-51.7216,-6.66,86,75,2.57,GL,1702497232
167,port alfred,-33.5906,26.891,17.88,89,59,1.79,ZA,1702497077
168,anzio,41.4853,12.6179,16.39,78,100,8.04,IT,1702497232
169,san pedro pochutla,15.7333,-96.4667,34.84,53,72,3.15,MX,1702497232
170,enewetak,11.3474,162.3373,27.68,78,73,8.28,MH,1702497232
171,berezovo,63.9381,65.0419,-14.73,87,100,4.06,RU,1702497232
172,zaozersk,69.4005,32.4476,-18.18,99,49,3.16,RU,1702497232
173,hotan,37.0997,79.9269,-3.06,48,100,3.84,CN,1702497233
174,miri,4.4148,114.0089,25.08,94,40,1.54,MY,1702497004
175,tarko-sale,64.9225,77.785,-24.5,100,99,2.96,RU,1702497233
176,ust'-kulom,61.6864,53.6902,-14.33,85,100,3.86,RU,1702497233
177,arteche,12.2645,125.4048,25.82,88,65,5.48,PH,1702497233
178,airway heights,47.6446,-117.5933,1.55,72,100,4.12,US,1702497233
179,panaba,21.2833,-88.2667,26.95,74,43,5.99,MX,1702497233
180,sirte,31.2089,16.5887,20.19,38,41,4.92,LY,1702497233
181,isafjordur,66.0755,-23.124,2.67,87,81,6.01,IS,1702497233
182,takoradi,4.8845,-1.7554,27.18,65,0,3.83,GH,1702497234
183,uturoa,-16.7333,-151.4333,27.25,81,63,7.09,PF,1702497234
184,afaahiti,-17.75,-149.2833,24.93,88,99,10.42,PF,1702497234
185,bayanaul,50.7889,75.6956,-24.86,89,15,1.26,KZ,1702497234
186,newman,37.3138,-121.0208,15.01,44,0,0.89,US,1702497234
187,konarka,19.9,86.1167,17.22,64,100,2.21,IN,1702497234
188,korla,41.7597,86.1469,-7.9,39,96,1.98,CN,1702497235
189,klina,42.6217,20.5778,9.2,90,100,2.51,XK,1702497235
190,ocean pines,38.3954,-75.1557,10.61,37,48,7.74,US,1702497236
191,kamakwie,9.5,-12.2333,25.64,29,21,0.72,SL,1702497236
192,shindand,33.3029,62.1474,9.35,34,6,2.92,AF,1702497236
193,tommot,58.9564,126.2925,-25.94,91,100,5.1,RU,1702497236
194,benton,36.3334,-94.3335,16.4,34,0,6.17,US,1702497236
195,mostaganem,35.9311,0.0892,15.18,81,100,6.66,DZ,1702497236
196,arsen'yev,44.1631,133.2733,-17.87,87,19,0.71,RU,1702497237
197,badger,64.8,-147.5333,-14.07,86,100,0.0,US,1702497237
198,zabol,32.25,67.25,3.28,39,100,0.58,AF,1702497237
199,puerto aysen,-45.4,-72.7,11.2,88,100,2.35,CL,1702497237
200,san antonio de pale,-1.4014,5.6325,26.77,82,100,5.37,GQ,1702497237
201,arrifes,37.7667,-25.7,14.14,72,40,4.12,PT,1702497237
202,kodiak,57.79,-152.4072,-7.27,73,100,5.14,US,1702496959
203,trevelin,-43.0858,-71.4639,17.71,42,100,3.53,AR,1702497237
204,eirunepe,-6.6603,-69.8736,26.72,92,96,1.03,BR,1702497238
205,jamestown,42.097,-79.2353,2.23,50,20,6.69,US,1702497181
206,modimolle,-24.7,28.4,21.52,63,72,5.8,ZA,1702497238
207,quellon,-43.1167,-73.6167,13.72,60,96,1.79,CL,1702497238
208,brisas de zicatela,15.8369,-97.0419,29.75,50,87,2.56,MX,1702497238
209,micheweni,-4.9667,39.8333,27.29,81,11,2.48,TZ,1702497238
210,ocana,8.2377,-73.356,26.32,60,27,2.06,CO,1702497239
211,rumphi,-11.0186,33.8575,21.48,74,33,2.19,MW,1702497239
212,bowen,-20.0167,148.2333,25.37,82,96,7.71,AU,1702497239
213,arraial do cabo,-22.9661,-42.0278,27.98,73,40,8.23,BR,1702497239
214,mahina,-17.5065,-149.489,25.87,89,75,7.2,PF,1702497239
215,al mishkhab,31.8042,44.4911,15.06,58,74,3.46,IQ,1702497239
216,dryden,49.7833,-92.7503,-5.84,73,0,3.09,CA,1702497239
217,smithers,54.7804,-127.1743,0.18,93,100,3.09,CA,1702497240
218,crucecita,-28.95,-58.9833,28.6,81,83,5.16,AR,1702497240
219,nema,57.5067,50.5011,-14.41,78,100,5.24,RU,1702497240
220,tofol,5.3248,163.0078,27.77,82,74,6.19,FM,1702497240
221,jayapura,-2.5333,140.7,26.66,89,100,2.53,ID,1702497240
222,inarajan village,13.2736,144.7484,28.08,88,15,8.26,GU,1702497240
223,georgetown,5.4112,100.3354,25.96,89,20,4.63,MY,1702497240
224,wailua homesteads,22.0669,-159.378,24.24,90,100,11.83,US,1702497240
225,trinity beach,-16.7888,145.6968,25.56,94,75,7.72,AU,1702497240
226,viedma,-40.8135,-62.9967,28.58,16,1,3.25,AR,1702497112
227,pisco,-13.7,-76.2167,24.03,69,0,4.63,PE,1702497240
228,kailua-kona,19.6406,-155.9956,26.95,72,40,3.09,US,1702497241
229,mabaruma,8.2,-59.7833,28.39,71,34,2.46,GY,1702497241
230,paita,-5.0892,-81.1144,24.58,70,19,8.4,PE,1702497241
231,itamaraca,-7.7478,-34.8256,29.03,64,4,5.2,BR,1702497241
232,kerman,30.2832,57.0788,11.92,17,0,4.12,IR,1702497241
233,villemandeur,47.987,2.718,7.86,93,100,3.82,FR,1702497241
234,cortina d'ampezzo,46.5384,12.1377,1.06,97,100,1.64,IT,1702497241
235,vernon,50.2581,-119.2691,5.34,71,90,5.66,CA,1702497241
236,saint-francois,46.4154,3.9054,7.69,89,75,5.14,FR,1702497241
237,karoi,-16.8099,29.6925,19.76,86,100,1.5,ZW,1702497242
238,arkhangel'sk,64.5401,40.5433,-9.93,85,100,4.0,RU,1702497026
239,broken hill,-31.95,141.4333,20.62,44,0,2.45,AU,1702497242
240,felege neway,6.3,36.8833,19.92,80,54,1.19,ET,1702497242
241,hasaki,35.7333,140.8333,4.22,44,98,1.5,JP,1702497242
242,lompoc,34.6391,-120.4579,20.99,64,0,0.45,US,1702497242
243,kurumkan,54.3,110.3,-25.49,99,64,1.34,RU,1702497242
244,radomsko,51.0671,19.4448,2.35,98,100,2.03,PL,1702497242
245,kudahuvadhoo,2.6708,72.8944,27.92,75,67,1.91,MV,1702497242
246,saint-philippe,-21.3585,55.7679,25.77,83,79,3.69,RE,1702497243
247,ulsteinvik,62.3432,5.8487,0.5,80,16,4.83,NO,1702497243
248,bredasdorp,-34.5322,20.0403,16.84,72,100,4.41,ZA,1702497243
249,papao,-17.75,-149.55,25.82,87,98,10.59,PF,1702497243
250,lebu,-37.6167,-73.65,14.11,70,0,8.65,CL,1702497243
251,karachi,24.9056,67.0822,15.9,55,98,0.0,PK,1702497217
252,zuunmod,47.7069,106.9528,-25.43,97,100,1.86,MN,1702497243
253,cheongsong gun,36.4335,129.057,4.77,93,50,1.29,KR,1702497243
254,nagqu,31.5,92.0,-31.33,100,41,1.42,CN,1702497243
255,kangding,30.0513,101.9603,3.93,44,24,3.41,CN,1702497244
256,soio,-6.1349,12.3689,27.65,80,91,3.45,AO,1702497244
257,quebo,11.3333,-14.9333,24.34,57,100,2.1,GW,1702497244
258,varennes-vauzelles,47.0168,3.1404,7.73,93,89,3.38,FR,1702497236
259,egilsstadir,65.2653,-14.3948,7.95,71,75,6.69,IS,1702497244
260,aioun,16.6614,-9.6149,24.14,16,92,4.0,MR,1702497244
261,kavieng,-2.5744,150.7967,27.34,80,94,2.14,PG,1702497244
262,naze,28.3667,129.4833,20.51,75,96,6.65,JP,1702497244
263,deniliquin,-35.5333,144.9667,20.64,49,0,4.57,AU,1702497199
264,coquimbo,-29.9533,-71.3436,17.85,72,40,7.72,CL,1702497244
265,fortuna,40.5982,-124.1573,10.55,86,0,0.0,US,1702497245
266,metu,8.3,35.5833,15.09,71,18,0.76,ET,1702497245
267,gadzhiyevo,69.2551,33.3362,-17.58,100,90,4.32,RU,1702497245
268,petropavlovsk-kamchatsky,53.0452,158.6483,-8.67,57,40,6.0,RU,1702497245
269,belyy yar,53.6039,91.3903,-33.06,83,40,0.0,RU,1702497245
270,blackwell,36.8045,-97.2828,14.27,44,75,4.12,US,1702497245
271,kabinda,-6.1333,24.4833,19.27,96,100,1.19,CD,1702497245
272,dover,39.1582,-75.5244,9.44,36,39,2.24,US,1702497245
273,klyuchi,52.2667,79.1667,-22.88,81,92,2.68,RU,1702497245
274,tazovsky,67.4667,78.7,-21.75,98,98,2.68,RU,1702497246
275,san patricio,28.017,-97.5169,20.48,92,100,7.1,US,1702497246
276,fort bragg,35.139,-79.006,15.75,35,0,3.09,US,1702497246
277,marsabit,2.3284,37.9899,21.22,68,28,2.94,KE,1702497246
278,fale old settlement,-9.3852,-171.2468,26.19,91,100,7.51,TK,1702497246
279,tralee,52.2704,-9.7026,8.22,90,100,3.38,IE,1702497246
280,tereze,43.9361,42.4434,-0.67,98,100,1.08,RU,1702497246
281,zheleznogorsk-ilimskiy,56.5768,104.1217,-34.24,99,60,2.24,RU,1702497246
282,san luis de la loma,17.2706,-100.8939,29.86,55,100,2.44,MX,1702497246
283,necochea,-38.5473,-58.7368,19.67,39,0,6.12,AR,1702497247
284,ta`u,-14.2336,-169.5144,26.22,88,100,6.53,AS,1702497247
285,sinabang,2.4803,96.3801,26.1,85,91,2.59,ID,1702497247
286,chernyshevskiy,63.0128,112.4714,-28.83,96,97,4.22,RU,1702497247
287,rongelap,11.1635,166.8941,27.27,83,80,10.1,MH,1702497247
288,nadym,65.5333,72.5167,-20.39,93,100,3.26,RU,1702497247
289,gandajika,-6.75,23.95,19.14,97,100,1.23,CD,1702497247
290,ulanhot,46.0833,122.0833,-19.56,95,62,1.12,CN,1702497247
291,sechura,-5.5569,-80.8222,27.76,56,25,6.95,PE,1702497247
292,yei,4.095,30.6779,22.56,37,91,0.76,SS,1702497248
293,mata-utu,-13.2816,-176.1745,27.8,70,81,3.57,WF,1702497248
294,vorkuta,67.5,64.0,-15.75,96,100,4.17,RU,1702497248
295,mahibadhoo,3.7833,72.9667,27.84,80,100,7.44,MV,1702497248
296,igrim,63.1906,64.4162,-13.15,79,97,3.98,RU,1702497248
297,lorengau,-2.0226,147.2712,27.34,82,100,4.04,PG,1702497248
298,new norfolk,-42.7826,147.0587,15.72,94,63,1.51,AU,1702497248
299,codrington,-38.2667,141.9667,15.47,81,52,6.4,AU,1702497248
300,sarakhs,36.5449,61.1577,4.62,46,100,0.29,IR,1702497249
301,colares,38.7992,-9.4469,14.03,81,1,8.05,PT,1702497249
302,thisted,56.9552,8.6949,-1.0,71,100,6.51,DK,1702497249
303,suva,-18.1416,178.4415,22.71,88,20,1.54,FJ,1702497249
304,morigaon,26.3796,92.3415,16.14,87,0,0.8,IN,1702497249
305,yorkton,51.2167,-102.4677,3.91,60,0,6.69,CA,1702497249
306,khanty-mansiysk,61.0042,69.0019,-12.94,66,20,5.0,RU,1702497249
307,suntar,62.1444,117.6319,-23.84,93,100,5.76,RU,1702497249
308,qurayyat,31.3318,37.3428,12.1,82,40,2.06,SA,1702497249
309,bulnes,-36.7423,-72.2985,27.42,9,0,4.28,CL,1702497249
310,banda aceh,5.5577,95.3222,25.6,84,99,3.72,ID,1702497250
311,katsuren-haebaru,26.3369,127.8719,20.01,88,0,2.06,JP,1702497250
312,ghanzi,-21.5667,21.7833,24.84,56,100,7.25,BW,1702497250
313,sur,22.5667,59.5289,22.48,56,64,3.55,OM,1702497250
314,bratsk,56.1325,101.6142,-33.73,94,93,1.83,RU,1702497250
315,ortigueira,-24.2083,-50.9494,27.72,55,4,1.56,BR,1702497250
316,hola,51.5377,23.1902,1.57,100,100,3.13,PL,1702497250
317,villa gesell,-37.2639,-56.973,18.92,70,0,7.21,AR,1702497250
318,nar'yan-mar,67.6713,53.087,-13.85,95,100,4.36,RU,1702497250
319,whakatane,-37.9585,176.9854,19.38,70,4,4.02,NZ,1702497251
320,labasa,-16.4167,179.3833,24.3,86,100,2.21,FJ,1702497251
321,mitsamiouli,-11.3847,43.2844,27.81,77,13,3.2,KM,1702497251
322,itoman,26.1247,127.6694,20.01,77,75,2.06,JP,1702497251
323,tome,-36.6167,-72.95,19.34,54,0,5.25,CL,1702497251
324,amahai,-3.3333,128.9167,26.02,83,100,1.66,ID,1702497251
325,shakhun'ya,57.6758,46.6114,-13.9,89,100,5.39,RU,1702497251
326,patterson,37.4716,-121.1297,15.1,66,0,1.06,US,1702497251
327,capayan,-28.761,-66.0502,35.97,38,63,1.9,AR,1702497251
328,anadyr,64.75,177.4833,-24.72,77,0,2.0,RU,1702497252
329,nicoya,10.1483,-85.452,30.65,62,0,6.75,CR,1702497039
330,daun,50.2,6.8333,6.88,100,100,1.54,DE,1702497252
331,doaba,33.4244,70.7364,8.81,41,11,1.15,PK,1702497252
332,rio grande,-32.035,-52.0986,25.06,89,100,0.68,BR,1702497131
333,ashland,40.8167,-82.2665,4.59,75,0,3.13,US,1702497252
334,haiku-pauwela,20.9219,-156.3051,24.59,73,20,7.2,US,1702497252
335,nova sintra,14.8667,-24.7167,21.65,65,93,4.19,CV,1702497252
336,aosta,45.7667,7.4167,-0.9,68,14,0.45,IT,1702496992
337,puerto baquerizo moreno,-0.9,-89.6,27.55,74,75,7.72,EC,1702497139
338,uliastay,47.7417,96.8444,-22.46,100,100,1.09,MN,1702497253
339,saudarkrokur,65.7461,-19.6394,3.16,69,98,8.37,IS,1702497253
340,igarka,67.4667,86.5833,-25.13,95,96,5.26,RU,1702497253
341,st. john's,47.5649,-52.7093,3.32,84,75,7.2,CA,1702496962
342,greymouth,-42.4667,171.2,13.5,81,78,3.62,NZ,1702497253
343,vorgashor,67.5833,63.95,-15.97,96,100,4.23,RU,1702497254
344,tura,25.5198,90.2201,13.24,64,0,0.9,IN,1702497254
345,darwin,-12.4611,130.8418,27.72,86,100,3.58,AU,1702497254
346,sharypovo,55.5403,89.2008,-25.62,88,100,1.93,RU,1702497254
347,panj,37.2363,69.0991,9.02,63,100,0.91,TJ,1702497254
348,ciudad de chiautla de tapia,18.2981,-98.6053,27.91,33,100,0.48,MX,1702497254
349,betare oya,5.6,14.0833,23.68,35,31,1.82,CM,1702497254
350,constantia,44.1833,28.65,9.38,83,100,9.38,RO,1702497255
351,abeche,13.8292,20.8324,21.09,22,5,5.12,TD,1702497255
352,cooma,-36.2333,149.1333,19.22,72,2,4.67,AU,1702497255
353,broome,42.2506,-75.833,3.27,62,100,4.63,US,1702497255
354,maracacume,-2.0428,-45.9592,28.54,68,87,0.11,BR,1702497255
355,severo-yeniseyskiy,60.3725,93.0408,-26.66,93,100,3.29,RU,1702497255
356,suileng,47.25,127.0833,-31.94,100,7,1.52,CN,1702497256
357,holyhead,53.3062,-4.6321,6.1,87,100,1.03,GB,1702497256
358,qarauyl,48.9451,79.255,-27.12,99,78,1.53,KZ,1702497256
359,kralendijk,12.15,-68.2667,30.99,62,40,9.77,BQ,1702497130
360,aberdeen,57.1437,-2.0981,2.27,95,20,4.12,GB,1702497119
361,usinsk,65.9939,57.5281,-13.85,94,100,7.15,RU,1702497256
362,chos malal,-37.3781,-70.2709,29.24,7,0,8.65,AR,1702497256
363,monrovia,6.3005,-10.7969,26.87,79,91,2.89,LR,1702496984
364,wanning,18.8003,110.3967,24.38,90,62,1.59,CN,1702497256
365,colonia,50.9333,6.95,8.86,82,20,1.03,DE,1702497256
366,ahfir,34.9537,-2.1003,15.34,77,100,3.86,MA,1702497256
367,kavaratti,10.5669,72.642,28.27,75,52,1.93,IN,1702497256
368,antofagasta,-23.65,-70.4,20.6,66,97,3.15,CL,1702497257
369,benidorm,38.5382,-0.131,15.99,52,51,5.57,ES,1702497257
370,el granada,37.5027,-122.4694,17.68,52,0,3.09,US,1702497257
371,cole harbour,44.6724,-63.4751,4.96,83,75,3.58,CA,1702497257
372,heves,47.6,20.2833,4.47,94,100,0.92,HU,1702497257
373,babolsar,36.7025,52.6576,9.18,70,100,0.85,IR,1702497257
374,porto novo,6.4965,2.6036,27.9,60,0,2.55,BJ,1702497258
375,hassi messaoud,31.6804,6.0729,18.92,18,0,2.57,DZ,1702497259
376,north bay,46.3168,-79.4663,-3.36,50,0,4.63,CA,1702497259
377,dodge city,37.7528,-100.0171,7.57,100,100,4.12,US,1702497259
378,susanville,40.4163,-120.653,5.45,69,20,1.34,US,1702497259
379,vilyuchinsk,52.9306,158.4028,-7.85,79,79,6.13,RU,1702497259
380,aykhal,66.0,111.5,-28.5,100,100,2.32,RU,1702497260
381,usogorsk,63.4106,48.6872,-12.96,94,100,3.88,RU,1702497260
382,brigantine,39.4101,-74.3646,9.11,42,0,6.17,US,1702497260
383,coronel dorrego,-38.7187,-61.2873,26.69,16,0,8.8,AR,1702497260
384,fada n'gourma,12.0622,0.3578,23.37,17,0,4.03,BF,1702497260
385,beloyarskiy,63.7119,66.6722,-15.0,94,100,4.47,RU,1702497260
386,tolanaro,-25.0319,46.9987,26.04,94,40,2.06,MG,1702497261
387,pasni,25.2631,63.471,23.9,61,94,2.13,PK,1702497261
388,amga,60.8953,131.9608,-28.52,96,100,2.41,RU,1702497261
389,portarlington,53.1622,-7.1911,6.34,93,100,1.34,IE,1702497261
390,mana,5.6592,-53.7767,28.33,77,42,4.96,GF,1702497261
391,tobetsu,43.2169,141.5169,-3.16,66,98,9.98,JP,1702497261
392,shchyolkino,45.4291,35.8223,8.09,89,83,4.02,UA,1702497261
393,laojunmiao,39.8333,97.7333,-12.91,73,100,3.29,CN,1702497261
394,kourou,5.1552,-52.6478,31.03,75,99,4.03,GF,1702497262
395,mournies,35.4764,24.0092,17.13,94,20,0.0,GR,1702497262
396,calp,38.6447,0.0445,15.86,43,55,4.7,ES,1702497262
397,san fernando,15.0286,120.6898,24.85,86,1,2.03,PH,1702497262
398,ixtapa,20.7,-105.2,27.9,64,100,0.89,MX,1702497262
399,arafat,21.3594,39.9664,20.98,53,22,3.54,SA,1702497262
400,kiunga,-6.1219,141.2906,22.99,100,92,1.05,PG,1702497262
401,grantsville,40.5999,-112.4644,8.31,68,0,0.0,US,1702497262
402,dudinka,69.4058,86.1778,-24.07,94,98,8.05,RU,1702497263
403,saipan,15.1355,145.701,27.39,83,20,5.66,MP,1702497263
404,otelu rosu,45.5333,22.3667,9.68,79,100,2.94,RO,1702497263
405,khromtau,50.2503,58.4347,-17.57,77,100,7.43,KZ,1702497263
406,westport,41.1415,-73.3579,8.78,41,0,6.17,US,1702497263
407,kota bharu,6.1333,102.2386,26.97,83,40,5.14,MY,1702497263
408,eastham,41.8301,-69.9739,7.77,45,5,3.13,US,1702497263
409,nizhniye sergi,56.6614,59.3033,-21.1,83,100,1.63,RU,1702497264
410,west bay,19.3667,-81.4167,29.04,78,75,6.69,KY,1702497264
411,tuy hoa,13.0833,109.3,23.24,90,55,2.17,VN,1702497264
412,urumqi,43.801,87.6005,-21.47,84,0,3.0,CN,1702497264
413,bedford,52.1346,-0.4663,6.0,89,100,6.52,GB,1702497264
414,la ronge,55.1001,-105.2842,4.14,41,75,3.09,CA,1702497264
415,nhamunda,-2.1861,-56.7131,35.32,40,92,1.91,BR,1702497264
416,dapa,9.7594,126.0531,27.39,80,78,6.21,PH,1702497264
417,wolin,53.8421,14.6147,2.6,95,100,7.33,PL,1702497264
418,pemangkat,1.1667,108.9667,25.84,86,100,2.16,ID,1702497264
419,i-n-salah,27.1935,2.4607,19.05,16,16,3.43,DZ,1702497265
420,suez,29.9737,32.5263,17.19,72,25,2.2,EG,1702497265
421,bardai,11.65,7.2333,17.24,26,3,4.34,NG,1702497265
422,nampula,-15.1165,39.2666,28.97,54,0,4.12,MZ,1702497265
423,yung shue wan,22.2333,114.1167,22.4,86,100,6.58,HK,1702497265
424,ruayer,43.0537,-5.5502,7.72,94,86,4.26,ES,1702497265
425,weno,7.4515,151.8468,27.97,83,100,3.6,FM,1702497265
426,troitsko-pechorsk,62.7084,56.1964,-14.23,87,100,4.44,RU,1702497265
427,porto,41.1496,-8.611,10.16,83,20,2.57,PT,1702497184
428,mahajanga,-15.7167,46.3167,29.01,79,20,3.6,MG,1702497266
429,pahrump,36.2083,-115.9839,13.47,34,0,3.13,US,1702497266
430,akbarabad,29.2464,52.7793,10.79,61,100,3.85,IR,1702497266
431,horta,38.5333,-28.6333,14.8,75,20,4.12,PT,1702497266
432,kisangani,0.5167,25.2,22.72,92,96,0.6,CD,1702497266
433,zambezi,-13.5432,23.1047,19.09,96,100,4.47,ZM,1702497266
434,zapolyarnyy,69.4154,30.8136,-15.4,98,43,3.33,RU,1702497266
435,itaituba,-4.2761,-55.9836,34.09,52,40,3.09,BR,1702497266
436,kuta,-8.7233,115.1723,26.97,94,75,1.54,ID,1702497267
437,barra dos coqueiros,-10.9089,-37.0386,29.01,65,20,6.17,BR,1702497256
438,belmonte,-15.8631,-38.8828,27.01,65,100,3.78,BR,1702497267
439,bac lieu,9.285,105.7244,26.4,80,98,8.11,VN,1702497267
440,kirensk,57.7853,108.1119,-28.66,94,98,3.47,RU,1702497267
441,mukalla,14.5425,49.1242,22.58,77,14,0.81,YE,1702497267
442,selkirk,50.1436,-96.8845,-3.23,80,97,3.58,CA,1702497161
443,sake,-1.5736,29.045,17.96,95,100,0.97,CD,1702497267
444,zamora,-4.0692,-78.9567,32.58,65,68,1.34,EC,1702497267
445,damboa,11.156,12.7576,20.47,36,81,4.07,NG,1702497268
446,ampanihy,-24.7,44.75,24.7,76,93,4.29,MG,1702497268
447,kolonia,50.9333,6.95,8.86,82,20,1.03,DE,1702497064
448,rethymno,35.3647,24.4714,18.44,84,32,4.16,GR,1702497268
449,orichi,58.4036,49.0572,-16.08,84,100,5.01,RU,1702497268
450,kendari,-3.945,122.4989,24.15,97,100,2.36,ID,1702497268
451,keminmaa,65.8596,24.8228,-18.13,85,93,3.09,FI,1702497268
452,conduaga,8.862,117.4893,25.74,83,9,1.79,PH,1702497269
453,lewistown,40.5992,-77.5714,7.33,66,0,4.12,US,1702497269
454,concordia,-31.393,-58.0209,27.83,75,52,3.16,AR,1702497269
455,madimba,-10.4,40.3333,26.67,82,97,2.64,TZ,1702497269
456,fada,9.5667,8.3,19.92,31,53,2.29,NG,1702497269
457,itambacuri,-18.0311,-41.685,34.69,24,33,4.51,BR,1702497269
458,tromso,69.6496,18.957,-4.99,68,0,6.69,NO,1702497270
459,port saint john's,-31.6229,29.5448,20.87,84,100,7.66,ZA,1702497270
460,salalah,17.0151,54.0924,24.05,69,20,2.06,OM,1702497270
461,kenai,60.5544,-151.2583,-6.95,93,100,2.06,US,1702497270
462,notodden,59.5594,9.2585,-14.9,95,21,1.59,NO,1702497270
463,laguna,38.421,-121.4238,16.67,62,0,0.45,US,1702497214
464,onguday,50.75,86.15,-23.53,94,6,1.18,RU,1702497270
465,klaksvik,62.2266,-6.589,7.51,95,100,18.85,FO,1702497270
466,copala,16.65,-98.9833,31.28,50,100,2.74,MX,1702497270
467,pauini,-7.7136,-66.9764,32.06,59,100,0.9,BR,1702497271
468,ploneour-lanvern,47.9,-4.2833,10.16,81,75,7.72,FR,1702497271
469,mariental,-24.6333,17.9667,28.38,14,28,8.88,NA,1702497271
470,rawson,-43.3002,-65.1023,24.11,27,8,2.69,AR,1702497271
471,kiffa,16.6166,-11.4045,25.44,15,86,4.37,MR,1702497271
472,pizarro,4.9533,-77.366,28.97,79,38,3.88,CO,1702497271
473,kruisfontein,-34.0033,24.7314,17.16,89,99,2.75,ZA,1702497271
474,elliot,-31.3333,27.85,11.96,81,14,1.28,ZA,1702497271
475,forde,61.4522,5.8572,3.0,93,75,0.0,NO,1702497271
476,charters towers,-20.1,146.2667,22.79,86,100,7.08,AU,1702497272
477,okanagan,50.3639,-119.35,4.04,67,92,2.26,CA,1702497272
478,keflavik,64.0049,-22.5624,4.95,87,75,9.77,IS,1702497272
479,tucuma,-0.1833,-50.05,29.13,70,53,3.65,BR,1702497272
480,lancing,50.8288,-0.3225,6.95,93,100,10.36,GB,1702497272
481,bathsheba,13.2167,-59.5167,28.34,74,40,7.2,BB,1702497272
482,kirakira,-10.4544,161.9205,25.58,80,49,4.01,SB,1702497272
483,turpan,42.9333,89.1667,-5.38,23,79,0.95,CN,1702497272
484,agrinio,38.6214,21.4078,14.28,89,90,1.43,GR,1702497272
485,zuwarah,32.9312,12.082,19.03,39,56,6.22,LY,1702497272
486,taco pozo,-25.6167,-63.2833,39.15,30,0,5.5,AR,1702497273
487,anar darah,32.7587,61.654,10.46,37,5,2.03,AF,1702497273
488,vrangel',42.7297,133.0839,-9.18,39,100,4.22,RU,1702497273
489,kapoeta,4.7717,33.5903,29.49,41,71,2.68,SS,1702497273
490,mokhsogollokh,61.4681,128.9203,-27.38,95,100,3.38,RU,1702497273
491,antonio enes,-16.2325,39.9086,27.36,85,82,3.3,MZ,1702497273
492,choibalsan,48.0667,114.5,-24.38,90,100,1.66,MN,1702497273
493,la libertad,-2.2333,-80.9,23.81,94,20,5.66,EC,1702497112
494,ust-tsilma,65.441,52.1498,-12.89,93,100,3.21,RU,1702497274
495,warrenton,-28.114,24.8475,25.94,14,0,3.24,ZA,1702497274
496,konstantinovskaya,44.0456,43.1583,3.21,98,100,2.08,RU,1702497274
497,pandan,14.0453,124.1694,26.55,86,93,9.27,PH,1702497274
498,gorontalo,0.5412,123.0595,24.12,95,90,1.62,ID,1702497274
499,morondava,-20.2833,44.2833,28.16,78,93,4.39,MG,1702497274
500,mikhaylovskoye,51.8239,79.7172,-24.22,80,78,1.89,RU,1702497274
501,bubaque,11.2833,-15.8333,28.01,65,100,5.32,GW,1702497274
502,lubang,13.8584,120.124,27.63,73,5,11.15,PH,1702497274
503,beyneu,45.3167,55.2,-2.41,56,100,13.13,KZ,1702497275
504,salinas,36.6777,-121.6555,18.73,59,0,4.63,US,1702497035
505,cambria,35.5641,-121.0808,21.39,69,0,2.24,US,1702497185
506,klodawa,52.2545,18.9135,2.59,95,100,3.48,PL,1702497275
507,salekhard,66.53,66.6019,-16.03,93,100,3.29,RU,1702497275
508,qinnan,33.2531,119.9133,10.07,99,100,1.39,CN,1702497275
509,bengkulu,-3.8004,102.2655,23.35,92,44,1.88,ID,1702497275
510,ende,-8.8432,121.6623,26.05,83,96,1.68,ID,1702497275
511,saynshand,44.8824,110.1163,-18.13,83,100,9.13,MN,1702497275
512,mpika,-11.8343,31.4529,20.09,72,75,1.17,ZM,1702497275
513,jinghong,21.991,100.7341,17.23,99,19,0.6,CN,1702497276
514,howrah,22.5892,88.3103,18.0,77,4,0.0,IN,1702497276
515,axim,4.8699,-2.2405,27.04,69,0,3.24,GH,1702497276
516,northam,51.0333,-4.2167,8.12,82,9,4.06,GB,1702497276
517,juneau,58.3019,-134.4197,3.0,90,100,6.17,US,1702497057
518,urucara,-2.5364,-57.76,30.85,61,100,0.81,BR,1702497276
519,marti,22.9475,-80.9203,27.36,66,100,7.94,CU,1702497276
520,myeik,12.4333,98.6,24.72,79,55,1.57,MM,1702497276
521,cedeira,43.6797,-8.0209,11.88,77,96,4.84,ES,1702497277
522,carnarvon,-24.8667,113.6333,23.96,61,0,7.63,AU,1702497277
523,shingu,33.7333,135.9833,8.24,72,5,2.31,JP,1702497277
524,mweka,-4.85,21.5667,21.21,98,100,0.61,CD,1702497277
525,praia da vitoria,38.7333,-27.0667,15.14,67,75,5.7,PT,1702497277
526,dauphin,51.1494,-100.0502,4.08,56,75,9.26,CA,1702497277
527,afif,23.9065,42.9172,14.61,38,0,3.71,SA,1702497277
528,mikuni,36.2171,136.1519,1.95,68,99,1.83,JP,1702497277
529,buzuluk,52.7807,52.2635,-12.8,71,100,6.26,RU,1702497277
530,portland,45.5234,-122.6762,12.28,66,75,9.26,US,1702497121
531,conception bay south,47.4999,-52.9981,3.19,87,100,7.0,CA,1702497277
532,palmer,42.1584,-72.3287,5.84,42,75,5.14,US,1702497278
533,cannonvale,-20.2833,148.7,24.66,83,78,5.9,AU,1702497278
534,sisimiut,66.9395,-53.6735,-9.41,84,100,1.85,GL,1702497278
535,pedernales,18.0384,-71.744,28.92,57,100,3.2,DO,1702497278
536,hohhot,40.8106,111.6522,-0.84,80,40,3.0,CN,1702497278
537,kwekwe,-18.9281,29.8149,21.19,83,100,4.42,ZW,1702497278
538,bonthe,7.5264,-12.505,27.06,79,5,3.49,SL,1702497278
539,montepuez,-13.1256,38.9997,24.61,64,47,2.71,MZ,1702497279
540,businga,3.3333,20.8833,22.12,64,71,0.98,CD,1702497279
541,yerofey pavlovich,53.9667,121.9667,-33.25,96,13,1.49,RU,1702497279
542,bodaybo,57.8506,114.1933,-27.5,99,100,0.95,RU,1702497279
543,nemuro,43.3236,145.575,-3.92,64,21,11.78,JP,1702497279
544,dolores,-36.3132,-57.6792,21.85,80,97,6.2,AR,1702497279
545,melekeok village,7.4957,134.6367,26.31,89,40,4.12,PW,1702497279
546,acapulco de juarez,16.8634,-99.8901,30.49,55,97,2.67,MX,1702497031
547,huntsville,34.7304,-86.5861,16.49,37,0,2.06,US,1702497262
548,chimbote,-9.0853,-78.5783,22.96,74,45,5.48,PE,1702497279
549,el calafate,-50.3408,-72.2768,12.25,41,20,6.08,AR,1702497280
550,camiri,-20.05,-63.5167,36.88,30,40,0.0,BO,1702497280
551,bam,29.106,58.357,13.54,34,82,5.23,IR,1702497280
552,buala,-8.145,159.5921,26.44,84,22,0.47,SB,1702497280
553,reserva,-24.6503,-50.8506,28.01,46,2,1.18,BR,1702497280
554,maradi,13.5,7.1017,18.66,19,3,4.71,NE,1702497280
555,tangalle,6.024,80.7911,24.62,90,100,2.16,LK,1702497280
556,paracuru,-3.41,-39.0306,28.39,69,1,6.51,BR,1702497280
557,angaur state,6.906,134.13,28.78,76,92,8.74,PW,1702497280
